[
	{
		"tips": "【！！！！这是测试用的数据！！！！】",
		"id": 10000,
		"title": "马道枢纽",
		"createTime": "2024/07/10 14:55:00",
		"authorNickname": "平平",
		"authorAvatarUrl": "",
		"longitude": 108.944385,
		"latitude": 22.378856,
        "coordinateSystem": "GCJ02",
		"locationAddress": "广西壮族自治区钦州市灵山县旧州镇马道头村",
		"pictureList": [
			{
                "id": 1,
				"description": "正在建设中的马道枢纽",
				"picPath": "sharepics/madao_hinge_1.jpg",
                "thumbnailPath": "sharepics/madao_hinge_1.jpg",
                "width": 2647,
				"height": 1080,
				"size": 1875910,
				"sort": 0,
				"longitude": 108.944385,
				"latitude": 22.378856,
                "mimeType": "image/jpeg",
				"captureTime": "2024/07/10 14:52:00"
			},
            {
                "id": 2,
            	"description": "正在建设中的马道枢纽",
            	"picPath": "sharepics/madao_hinge_2.jpg",
                "thumbnailPath": "sharepics/madao_hinge_2.jpg",
                "width": 1080,
            	"height": 607,
            	"size": 156791,
            	"sort": 0,
            	"longitude": 108.944385,
            	"latitude": 22.378856,
                "mimeType": "image/jpeg",
            	"captureTime": "2024/07/10 14:52:00"
            },
            {
                "id": 3,
            	"description": "平陆运河概览",
            	"picPath": "sharepics/madao_hinge_3.jpg",
                "thumbnailPath": "sharepics/madao_hinge_3.jpg",
                "width": 736,
            	"height": 825,
            	"size": 163333,
            	"sort": 0,
            	"longitude": 108.944385,
            	"latitude": 22.378856,
                "mimeType": "image/jpeg",
            	"captureTime": "2024/07/10 14:52:00"
            }
		],
		"status": 1,
        "likesCount": 0,
		"commentCount": 0,
		"shareCount": 0,
		"viewCount": 0,
        "collectCount": 0
	},
    {
    	"id": 20000,
    	"title": "平塘江口",
    	"createTime": "2024/07/10 17:48:00",
    	"authorNickname": "平平",
    	"authorAvatarUrl": "",
    	"longitude": 109.073873,
    	"latitude": 22.642090,
        "coordinateSystem": "GCJ02",
    	"locationAddress": "广西壮族自治区南宁市横州市新福镇平塘村",
    	"pictureList": [
    		{
                "id": 1,
    			"description": "平塘江口鸟瞰图",
    			"picPath": "sharepics/pingtangjiang_entrance_1.jpg",
                "thumbnailPath": "sharepics/pingtangjiang_entrance_1.jpg",
                "width": 1920,
    			"height": 800,
    			"size": 753957,
    			"sort": 0,
    			"longitude": 109.073873,
    			"latitude": 22.642090,
                "mimeType": "image/jpeg",
    			"captureTime": "2024/07/10 14:52:00"
    		}
    	],
        "status": 1,
    	"likesCount": 0,
    	"commentCount": 0,
    	"shareCount": 0,
    	"viewCount": 0,
        "collectCount": 0
    },
    {
    	"id": 30000,
    	"title": "青年枢纽",
    	"createTime": "2024/07/10 18:02:00",
    	"authorNickname": "平平",
    	"authorAvatarUrl": "",
    	"longitude": 108.654629,
    	"latitude": 22.005420,
        "coordinateSystem": "GCJ02",
    	"locationAddress": "广西壮族自治区钦州市钦北区泥桥路",
    	"pictureList": [
    		{
                "id": 1,
    			"description": "正在建设中的青年枢纽",
    			"picPath": "sharepics/qingnian_hinge_1.jpg",
                "thumbnailPath": "sharepics/qingnian_hinge_1.jpg",
                "width": 2741,
    			"height": 1080,
    			"size": 2170453,
    			"sort": 0,
    			"longitude": 108.654629,
    			"latitude": 22.005420,
                "mimeType": "image/jpeg",
    			"captureTime": "2024/07/10 14:52:00"
    		}
    	],
        "status": 1,
    	"likesCount": 0,
    	"commentCount": 0,
    	"shareCount": 0,
    	"viewCount": 0,
        "collectCount": 0
    },
    {
    	"id": 40000,
    	"title": "企石枢纽",
    	"createTime": "2024/07/10 18:07:00",
    	"authorNickname": "平平",
    	"authorAvatarUrl": "",
    	"longitude": 108.942663,
    	"latitude": 22.322861,
        "coordinateSystem": "GCJ02",
    	"locationAddress": "广西壮族自治区钦州市灵山县陆屋镇企石村",
    	"pictureList": [
    		{
                "id": 1,
    			"description": "正在建设中的企石枢纽",
    			"picPath": "sharepics/qishi_hinge_1.jpg",
                "thumbnailPath": "sharepics/qishi_hinge_1.jpg",
                "width": 2663,
    			"height": 1080,
    			"size": 2086058,
    			"sort": 0,
    			"longitude": 108.942663,
    			"latitude": 22.322861,
                "mimeType": "image/jpeg",
    			"captureTime": "2024/07/10 14:52:00"
    		}
    	],
        "status": 1,
    	"likesCount": 0,
    	"commentCount": 0,
    	"shareCount": 0,
    	"viewCount": 0,
        "collectCount": 0
    },
    {
    	"id": 50000,
    	"title": "这是一个测试视频。视频描述了女主人尝试在猫面前表演一系列的突发猝发病，看看猫是如何反应的。猫无法理解女主人的动作，误以为是攻击性的动作，所以猫大法雷霆，攻击女主人，女主人扑倒在地，差点卧床不起！",
    	"createTime": "2024/10/10 12:50:00",
    	"authorNickname": "平平",
    	"authorAvatarUrl": "",
    	"longitude": 108.956462,
    	"latitude": 22.279318,
        "coordinateSystem": "GCJ02",
    	"locationAddress": "广西壮族自治区钦州市灵山县陆屋镇",
    	"pictureList": [
    		{
                "id": 1,
    			"description": "时长29秒的测试视频",
    			"picPath": "sharepics/test_video_1.mp4",
                "thumbnailPath": "sharepics/test_video_1.jpg",
                "width": 480,
    			"height": 854,
    			"size": 1482013,
    			"sort": 0,
    			"longitude": 108.956462,
    			"latitude": 22.279318,
                "duration": 29,
                "mimeType": "video/mp4",
    			"captureTime": "2024/10/10 12:50:00"
    		}
    	],
        "isVideo": true,
        "status": 1,
    	"likesCount": 0,
    	"commentCount": 0,
    	"shareCount": 0,
    	"viewCount": 0,
        "collectCount": 0
    }
]